[
  {"id":"4b4ba7f6f964a52006a326e3","name":"BH Shopping","contact":{"phone":"+553132284212","formattedPhone":"+55 31 3228-4212","twitter":"bhshopping"},"location":{"address":"Rod. BR-356, 3049","lat":-19.974518469377436,"lng":-43.944926261901855,"postalCode":"30320-900","city":"Belo Horizonte","state":"MG","country":"Brazil","cc":"BR"},"canonicalUrl":"https://foursquare.com/v/bh-shopping/4b4ba7f6f964a52006a326e3","categories":[{"id":"4bf58dd8d48988d1fd941735","name":"Mall","pluralName":"Malls","shortName":"Mall","icon":"https://foursquare.com/img/categories/shops/default.png","parents":["Shop & Service"],"primary":true}],"verified":true,"restricted":true,"stats":{"checkinsCount":76796,"usersCount":17738,"tipCount":275},"url":"http://www.bhshopping.com.br","likes":{"count":546,"groups":[{"type":"others","count":546,"items":[]}],"summary":"546 likes"}},
  {"id":"4b4604f9f964a520521426e3","name":"Diamond Mall","contact":{"phone":"+553140034136","formattedPhone":"+55 31 4003-4136","twitter":"diamondmall"},"location":{"address":"Av. Oleg\u00e1rio Maciel, 1600","crossStreet":"R. Gon\u00e7alves Dias","lat":-19.928069833320993,"lng":-43.947316110134125,"postalCode":"30180-111","city":"Belo Horizonte","state":"MG","country":"Brazil","cc":"BR"},"canonicalUrl":"https://foursquare.com/v/diamond-mall/4b4604f9f964a520521426e3","categories":[{"id":"4bf58dd8d48988d1fd941735","name":"Mall","pluralName":"Malls","shortName":"Mall","icon":"https://foursquare.com/img/categories/shops/default.png","parents":["Shop & Service"],"primary":true}],"verified":true,"restricted":true,"stats":{"checkinsCount":56274,"usersCount":14114,"tipCount":218},"url":"http://www.diamondmall.com.br","likes":{"count":394,"groups":[{"type":"others","count":394,"items":[]}],"summary":"394 likes"}},
  {"id":"4babc507f964a52005c83ae3","name":"Shopping Del Rey","contact":{"phone":"+553134792000","formattedPhone":"+55 31 3479-2000"},"location":{"address":"Av. Pres. Carlos Luz, 3001","crossStreet":"Av. Del Rey","lat":-19.889895741193754,"lng":-43.96822929382324,"postalCode":"31250-010","city":"Belo Horizonte","state":"MG","country":"Brazil","cc":"BR"},"canonicalUrl":"https://foursquare.com/v/shopping-del-rey/4babc507f964a52005c83ae3","categories":[{"id":"4bf58dd8d48988d1fd941735","name":"Mall","pluralName":"Malls","shortName":"Mall","icon":"https://foursquare.com/img/categories/shops/default.png","parents":["Shop & Service"],"primary":true}],"verified":true,"restricted":true,"stats":{"checkinsCount":23197,"usersCount":7949,"tipCount":165},"url":"http://www.shoppingdelrey.com.br","likes":{"count":210,"groups":[{"type":"others","count":210,"items":[]}],"summary":"210 likes"}},
  {"id":"4b4604f9f964a520521426e3","name":"Diamond Mall","contact":{"phone":"+553140034136","formattedPhone":"+55 31 4003-4136","twitter":"diamondmall"},"location":{"address":"Av. Oleg\u00e1rio Maciel, 1600","crossStreet":"R. Gon\u00e7alves Dias","lat":-19.928069833320993,"lng":-43.947316110134125,"postalCode":"30180-111","city":"Belo Horizonte","state":"MG","country":"Brazil","cc":"BR"},"canonicalUrl":"https://foursquare.com/v/diamond-mall/4b4604f9f964a520521426e3","categories":[{"id":"4bf58dd8d48988d1fd941735","name":"Mall","pluralName":"Malls","shortName":"Mall","icon":"https://foursquare.com/img/categories/shops/default.png","parents":["Shop & Service"],"primary":true}],"verified":true,"restricted":true,"stats":{"checkinsCount":56274,"usersCount":14114,"tipCount":218},"url":"http://www.diamondmall.com.br","likes":{"count":394,"groups":[{"type":"others","count":394,"items":[]}],"summary":"394 likes"}},
  {"id":"4b69fcbcf964a520f1bf2be3","name":"Minas Shopping","contact":{"phone":"+553134293545","formattedPhone":"+55 31 3429-3545","twitter":"minas_shopping"},"location":{"address":"Av. Cristiano Machado, 4000","lat":-19.874842475165806,"lng":-43.925979137420654,"postalCode":"31910-900","city":"Belo Horizonte","state":"MG","country":"Brazil","cc":"BR"},"canonicalUrl":"https://foursquare.com/v/minas-shopping/4b69fcbcf964a520f1bf2be3","categories":[{"id":"4bf58dd8d48988d1fd941735","name":"Mall","pluralName":"Malls","shortName":"Mall","icon":"https://foursquare.com/img/categories/shops/default.png","parents":["Shop & Service"],"primary":true}],"verified":false,"restricted":true,"stats":{"checkinsCount":22223,"usersCount":6827,"tipCount":178},"url":"http://www.minasshopping.com.br","likes":{"count":219,"groups":[{"type":"others","count":219,"items":[]}],"summary":"219 likes"}}
]
